[
  {
    "code": "IST",
    "name": "Istanbul Airport",
    "city": "Istanbul",
    "country": "Turkey",
    "latitude": 40.976,
    "longitude": 28.814
  },
  {
    "code": "JFK",
    "name": "John F. Kennedy International Airport",
    "city": "New York",
    "country": "United States",
    "latitude": 40.641,
    "longitude": -73.778
  },
  {
    "code": "LHR",
    "name": "London Heathrow Airport",
    "city": "London",
    "country": "United Kingdom",
    "latitude": 51.47,
    "longitude": -0.454
  },
  {
    "code": "DXB",
    "name": "Dubai International Airport",
    "city": "Dubai",
    "country": "United Arab Emirates",
    "latitude": 25.253,
    "longitude": 55.365
  },
  {
    "code": "FRA",
    "name": "Frankfurt Airport",
    "city": "Frankfurt",
    "country": "Germany",
    "latitude": 50.037,
    "longitude": 8.562
  },
  {
    "code": "HND",
    "name": "Tokyo Haneda Airport",
    "city": "Tokyo",
    "country": "Japan",
    "latitude": 35.549,
    "longitude": 139.779
  },
  {
    "code": "CDG",
    "name": "Paris Charles de Gaulle Airport",
    "city": "Paris",
    "country": "France",
    "latitude": 49.009,
    "longitude": 2.547
  },
  {
    "code": "DOH",
    "name": "Hamad International Airport",
    "city": "Doha",
    "country": "Qatar",
    "latitude": 25.273,
    "longitude": 51.608
  },
  {
    "code": "SIN",
    "name": "Singapore Changi Airport",
    "city": "Singapore",
    "country": "Singapore",
    "latitude": 1.364,
    "longitude": 103.991
  }
]
